ID,YearStart,YearEnd,Description,LocationAbbr,LocationDesc,DataSource,Class,Topic,Question,Response,Data_Value_Unit,DataValueTypeId,Data_Value_Type,Data_Value,Data_Value_Footnote_Symbol,Data_Value_Footnote,Low_Confidence_Limit,High_Confidence_Limit,Sample_Size,GeoLocation_Lat,GeoLocation_Long,ClassId,TopicId,QuestionId,ResponseId,StratficationCategory1,StratificationCategoryId1,Stratification1,StratificationId1,StratificationCategory2,StratificationCategoryId2,Stratification2,StratificationId2,StratificationCategory3,StratificationCategoryId3,Stratification3,StratificationId3,LocationDisplayOrder,FootnoteSymbol,FootnoteText,URL,FootnoteHeading
126219,2009,2009,2009,US,National,YRBSS,Obesity / Weight Status,Obesity / Weight Status,Percent of students in grades 9-12 who have obesity †,,,VALUE,Value,11.8,,,10.8,13,"15,396",,,OWS,OWS1,Q038,,Total,OVR,Total,OVERALL,,,,,,,,,0,,,,
142466,2009,2009,2009,AL,Alabama,YRBSS,Obesity / Weight Status,Obesity / Weight Status,Percent of students in grades 9-12 who have obesity †,,,VALUE,Value,13.3,,,11.1,15.9,"1,275",32.84057112,-86.63186076,OWS,OWS1,Q038,,Total,OVR,Total,OVERALL,,,,,,,,,1,,,,
123998,2009,2009,2009,AK,Alaska,YRBSS,Obesity / Weight Status,Obesity / Weight Status,Percent of students in grades 9-12 who have obesity †,,,VALUE,Value,11.9,,,9.9,14.2,"1,320",64.84507996,-147.722059,OWS,OWS1,Q038,,Total,OVR,Total,OVERALL,,,,,,,,,2,,,,
143263,2009,2009,2009,AZ,Arizona,YRBSS,Obesity / Weight Status,Obesity / Weight Status,Percent of students in grades 9-12 who have obesity †,,,VALUE,Value,12.8,,,11,14.8,"2,402",34.86597028,-111.7638113,OWS,OWS1,Q038,,Total,OVR,Total,OVERALL,,,,,,,,,4,,,,
113834,2009,2009,2009,AR,Arkansas,YRBSS,Obesity / Weight Status,Obesity / Weight Status,Percent of students in grades 9-12 who have obesity †,,,VALUE,Value,14.3,,,11.9,17,"1,501",34.74865012,-92.27449074,OWS,OWS1,Q038,,Total,OVR,Total,OVERALL,,,,,,,,,5,,,,
129166,2009,2009,2009,CO,Colorado,YRBSS,Obesity / Weight Status,Obesity / Weight Status,Percent of students in grades 9-12 who have obesity †,,,VALUE,Value,6.9,,,5.1,9.3,"1,397",38.84384076,-106.1336109,OWS,OWS1,Q038,,Total,OVR,Total,OVERALL,,,,,,,,,8,,,,
115974,2009,2009,2009,CT,Connecticut,YRBSS,Obesity / Weight Status,Obesity / Weight Status,Percent of students in grades 9-12 who have obesity †,,,VALUE,Value,10.2,,,8.3,12.5,"2,269",41.56266102,-72.64984095,OWS,OWS1,Q038,,Total,OVR,Total,OVERALL,,,,,,,,,9,,,,
119402,2009,2009,2009,DE,Delaware,YRBSS,Obesity / Weight Status,Obesity / Weight Status,Percent of students in grades 9-12 who have obesity †,,,VALUE,Value,13.5,,,12.1,15.1,"2,107",39.00883067,-75.57774117,OWS,OWS1,Q038,,Total,OVR,Total,OVERALL,,,,,,,,,10,,,,
118252,2009,2009,2009,FL,Florida,YRBSS,Obesity / Weight Status,Obesity / Weight Status,Percent of students in grades 9-12 who have obesity †,,,VALUE,Value,10.3,,,9.3,11.4,"4,766",28.93204038,-81.92896054,OWS,OWS1,Q038,,Total,OVR,Total,OVERALL,,,,,,,,,12,,,,
126018,2009,2009,2009,GA,Georgia,YRBSS,Obesity / Weight Status,Obesity / Weight Status,Percent of students in grades 9-12 who have obesity †,,,VALUE,Value,12.3,,,10.3,14.6,"1,829",32.83968109,-83.62758035,OWS,OWS1,Q038,,Total,OVR,Total,OVERALL,,,,,,,,,13,,,,
127573,2009,2009,2009,HI,Hawaii,YRBSS,Obesity / Weight Status,Obesity / Weight Status,Percent of students in grades 9-12 who have obesity †,,,VALUE,Value,14.2,,,11.1,18,"1,438",21.30485044,-157.8577494,OWS,OWS1,Q038,,Total,OVR,Total,OVERALL,,,,,,,,,15,,,,
123303,2009,2009,2009,ID,Idaho,YRBSS,Obesity / Weight Status,Obesity / Weight Status,Percent of students in grades 9-12 who have obesity †,,,VALUE,Value,8.7,,,7.3,10.2,"2,115",43.68263001,-114.36373,OWS,OWS1,Q038,,Total,OVR,Total,OVERALL,,,,,,,,,16,,,,
128413,2009,2009,2009,IL,Illinois,YRBSS,Obesity / Weight Status,Obesity / Weight Status,Percent of students in grades 9-12 who have obesity †,,,VALUE,Value,11.9,,,9.9,14.2,"2,896",40.48501028,-88.99771018,OWS,OWS1,Q038,,Total,OVR,Total,OVERALL,,,,,,,,,17,,,,
114824,2009,2009,2009,IN,Indiana,YRBSS,Obesity / Weight Status,Obesity / Weight Status,Percent of students in grades 9-12 who have obesity †,,,VALUE,Value,12.6,,,10.4,15.2,"1,462",39.76691045,-86.14996019,OWS,OWS1,Q038,,Total,OVR,Total,OVERALL,,,,,,,,,18,,,,
140577,2009,2009,2009,KS,Kansas,YRBSS,Obesity / Weight Status,Obesity / Weight Status,Percent of students in grades 9-12 who have obesity †,,,VALUE,Value,12.2,,,10.2,14.5,"1,906",38.3477403,-98.20078123,OWS,OWS1,Q038,,Total,OVR,Total,OVERALL,,,,,,,,,20,,,,
141073,2009,2009,2009,KY,Kentucky,YRBSS,Obesity / Weight Status,Obesity / Weight Status,Percent of students in grades 9-12 who have obesity †,,,VALUE,Value,17.4,,,14.9,20.1,"1,714",37.64597027,-84.77497105,OWS,OWS1,Q038,,Total,OVR,Total,OVERALL,,,,,,,,,21,,,,
123687,2009,2009,2009,LA,Louisiana,YRBSS,Obesity / Weight Status,Obesity / Weight Status,Percent of students in grades 9-12 who have obesity †,,,VALUE,Value,14.4,,,11.9,17.4,968,31.31266064,-92.44568007,OWS,OWS1,Q038,,Total,OVR,Total,OVERALL,,,,,,,,,22,,,,
137877,2009,2009,2009,ME,Maine,YRBSS,Obesity / Weight Status,Obesity / Weight Status,Percent of students in grades 9-12 who have obesity †,,,VALUE,Value,12.5,,,11.7,13.3,"8,106",45.25422889,-68.98503134,OWS,OWS1,Q038,,Total,OVR,Total,OVERALL,,,,,,,,,23,,,,
115525,2009,2009,2009,MD,Maryland,YRBSS,Obesity / Weight Status,Obesity / Weight Status,Percent of students in grades 9-12 who have obesity †,,,VALUE,Value,12,,,9.7,14.6,"1,579",39.29058096,-76.60926011,OWS,OWS1,Q038,,Total,OVR,Total,OVERALL,,,,,,,,,24,,,,
134896,2009,2009,2009,MA,Massachusetts,YRBSS,Obesity / Weight Status,Obesity / Weight Status,Percent of students in grades 9-12 who have obesity †,,,VALUE,Value,10.8,,,9.1,12.7,"2,554",42.27687047,-72.08269068,OWS,OWS1,Q038,,Total,OVR,Total,OVERALL,,,,,,,,,25,,,,
110076,2009,2009,2009,MI,Michigan,YRBSS,Obesity / Weight Status,Obesity / Weight Status,Percent of students in grades 9-12 who have obesity †,,,VALUE,Value,11.9,,,10.5,13.4,"3,303",44.66131954,-84.71439027,OWS,OWS1,Q038,,Total,OVR,Total,OVERALL,,,,,,,,,26,,,,
110046,2009,2009,2009,MS,Mississippi,YRBSS,Obesity / Weight Status,Obesity / Weight Status,Percent of students in grades 9-12 who have obesity †,,,VALUE,Value,18.1,,,15.6,20.8,"1,694",32.7455101,-89.53803083,OWS,OWS1,Q038,,Total,OVR,Total,OVERALL,,,,,,,,,28,,,,
138958,2009,2009,2009,MO,Missouri,YRBSS,Obesity / Weight Status,Obesity / Weight Status,Percent of students in grades 9-12 who have obesity †,,,VALUE,Value,14.3,,,12.3,16.6,"1,527",38.63579078,-92.56630005,OWS,OWS1,Q038,,Total,OVR,Total,OVERALL,,,,,,,,,29,,,,
124256,2009,2009,2009,MT,Montana,YRBSS,Obesity / Weight Status,Obesity / Weight Status,Percent of students in grades 9-12 who have obesity †,,,VALUE,Value,10.3,,,8.3,12.7,"1,768",47.06652897,-109.4244206,OWS,OWS1,Q038,,Total,OVR,Total,OVERALL,,,,,,,,,30,,,,
126627,2009,2009,2009,NV,Nevada,YRBSS,Obesity / Weight Status,Obesity / Weight Status,Percent of students in grades 9-12 who have obesity †,,,VALUE,Value,10.9,,,9.2,12.8,"1,982",39.49324039,-117.0718406,OWS,OWS1,Q038,,Total,OVR,Total,OVERALL,,,,,,,,,32,,,,
126588,2009,2009,2009,NH,New Hampshire,YRBSS,Obesity / Weight Status,Obesity / Weight Status,Percent of students in grades 9-12 who have obesity †,,,VALUE,Value,11.9,,,9.5,14.8,"1,416",43.65595011,-71.50036092,OWS,OWS1,Q038,,Total,OVR,Total,OVERALL,,,,,,,,,33,,,,
131907,2009,2009,2009,NJ,New Jersey,YRBSS,Obesity / Weight Status,Obesity / Weight Status,Percent of students in grades 9-12 who have obesity †,,,VALUE,Value,10.2,,,8.4,12.3,"1,709",40.13057005,-74.27369129,OWS,OWS1,Q038,,Total,OVR,Total,OVERALL,,,,,,,,,34,,,,
134876,2009,2009,2009,NM,New Mexico,YRBSS,Obesity / Weight Status,Obesity / Weight Status,Percent of students in grades 9-12 who have obesity †,,,VALUE,Value,13.5,,,11.1,16.3,"4,644",34.52088095,-106.240581,OWS,OWS1,Q038,,Total,OVR,Total,OVERALL,,,,,,,,,35,,,,
110441,2009,2009,2009,NY,New York,YRBSS,Obesity / Weight Status,Obesity / Weight Status,Percent of students in grades 9-12 who have obesity †,,,VALUE,Value,10.8,,,9.2,12.6,"12,018",42.82700103,-75.54397043,OWS,OWS1,Q038,,Total,OVR,Total,OVERALL,,,,,,,,,36,,,,
144081,2009,2009,2009,NC,North Carolina,YRBSS,Obesity / Weight Status,Obesity / Weight Status,Percent of students in grades 9-12 who have obesity †,,,VALUE,Value,13.2,,,11,15.8,"5,459",35.46622098,-79.15925046,OWS,OWS1,Q038,,Total,OVR,Total,OVERALL,,,,,,,,,37,,,,
120160,2009,2009,2009,ND,North Dakota,YRBSS,Obesity / Weight Status,Obesity / Weight Status,Percent of students in grades 9-12 who have obesity †,,,VALUE,Value,10.9,,,9.5,12.6,"1,798",47.47531978,-100.118421,OWS,OWS1,Q038,,Total,OVR,Total,OVERALL,,,,,,,,,38,,,,
123573,2009,2009,2009,OK,Oklahoma,YRBSS,Obesity / Weight Status,Obesity / Weight Status,Percent of students in grades 9-12 who have obesity †,,,VALUE,Value,14,,,11.3,17.1,"1,361",35.47203136,-97.52107021,OWS,OWS1,Q038,,Total,OVR,Total,OVERALL,,,,,,,,,40,,,,
135104,2009,2009,2009,PA,Pennsylvania,YRBSS,Obesity / Weight Status,Obesity / Weight Status,Percent of students in grades 9-12 who have obesity †,,,VALUE,Value,11.7,,,10.3,13.3,"1,950",40.79373015,-77.86070029,OWS,OWS1,Q038,,Total,OVR,Total,OVERALL,,,,,,,,,42,,,,
132407,2009,2009,2009,RI,Rhode Island,YRBSS,Obesity / Weight Status,Obesity / Weight Status,Percent of students in grades 9-12 who have obesity †,,,VALUE,Value,10.2,,,8.4,12.4,"3,052",41.70828019,-71.52247031,OWS,OWS1,Q038,,Total,OVR,Total,OVERALL,,,,,,,,,44,,,,
132596,2009,2009,2009,SC,South Carolina,YRBSS,Obesity / Weight Status,Obesity / Weight Status,Percent of students in grades 9-12 who have obesity †,,,VALUE,Value,16.5,,,12.5,21.3,"1,067",33.9988213,-81.04537121,OWS,OWS1,Q038,,Total,OVR,Total,OVERALL,,,,,,,,,45,,,,
132667,2009,2009,2009,SD,South Dakota,YRBSS,Obesity / Weight Status,Obesity / Weight Status,Percent of students in grades 9-12 who have obesity †,,,VALUE,Value,9.5,,,7.7,11.7,"2,095",44.35313005,-100.3735306,OWS,OWS1,Q038,,Total,OVR,Total,OVERALL,,,,,,,,,46,,,,
142163,2009,2009,2009,TN,Tennessee,YRBSS,Obesity / Weight Status,Obesity / Weight Status,Percent of students in grades 9-12 who have obesity †,,,VALUE,Value,15.7,,,13.8,17.9,"2,058",35.68094058,-85.77449091,OWS,OWS1,Q038,,Total,OVR,Total,OVERALL,,,,,,,,,47,,,,
136535,2009,2009,2009,TX,Texas,YRBSS,Obesity / Weight Status,Obesity / Weight Status,Percent of students in grades 9-12 who have obesity †,,,VALUE,Value,13.2,,,11.6,15.1,"3,333",31.82724041,-99.42677021,OWS,OWS1,Q038,,Total,OVR,Total,OVERALL,,,,,,,,,48,,,,
113774,2009,2009,2009,UT,Utah,YRBSS,Obesity / Weight Status,Obesity / Weight Status,Percent of students in grades 9-12 who have obesity †,,,VALUE,Value,6.3,,,4.7,8.4,"1,521",39.36070017,-111.5871306,OWS,OWS1,Q038,,Total,OVR,Total,OVERALL,,,,,,,,,49,,,,
129635,2009,2009,2009,VT,Vermont,YRBSS,Obesity / Weight Status,Obesity / Weight Status,Percent of students in grades 9-12 who have obesity †,,,VALUE,Value,12.2,,,10.8,13.8,"8,577",43.62538124,-72.51764079,OWS,OWS1,Q038,,Total,OVR,Total,OVERALL,,,,,,,,,50,,,,
139463,2009,2009,2009,WV,West Virginia,YRBSS,Obesity / Weight Status,Obesity / Weight Status,Percent of students in grades 9-12 who have obesity †,,,VALUE,Value,14.1,,,11.9,16.7,"1,594",38.6655102,-80.71264014,OWS,OWS1,Q038,,Total,OVR,Total,OVERALL,,,,,,,,,54,,,,
113055,2009,2009,2009,WI,Wisconsin,YRBSS,Obesity / Weight Status,Obesity / Weight Status,Percent of students in grades 9-12 who have obesity †,,,VALUE,Value,9.3,,,8,10.8,"2,389",44.39319117,-89.81637074,OWS,OWS1,Q038,,Total,OVR,Total,OVERALL,,,,,,,,,55,,,,
144606,2009,2009,2009,WY,Wyoming,YRBSS,Obesity / Weight Status,Obesity / Weight Status,Percent of students in grades 9-12 who have obesity †,,,VALUE,Value,9.7,,,8.5,11,"2,744",43.23554134,-108.1098304,OWS,OWS1,Q038,,Total,OVR,Total,OVERALL,,,,,,,,,56,,,,
,,,,,,,,,,,,,,,,,,,,,,,,,,,,,,,,,,,,,,,†,Obesity is defined as body mass index (BMI)-for-age and sex =95th percentile based on the 2000 CDC growth chart; BMI was calculated from self-reported weight and height (weight [kg]/ height [m²]).,,Footnote
,,,,,,,,,,,,,,,,,,,,,,,,,,,,,,,,,,,,,,,,Youth Risk Behavior Surveillance System ,https://www.cdc.gov/healthyyouth/data/yrbs/index.htm,Data Source
,,,,,,,,,,,,,,,,,,,,,,,,,,,,,,,,,,,,,,,,"Centers for Disease Control and Prevention.National Center for Chronic Disease Prevention and Health Promotion, Division of Nutrition, Physical Activity, and Obesity.Data, Trend and Maps [online].",/nccdphp/dnpao/data-trends-maps/index.html,Suggested Citation
,,,,,,,,,,,,,,,,,,,,,,,,,,,,,,,,,,,,,,,,Breastfeeding,/breastfeeding/index.htm,Related Links
,,,,,,,,,,,,,,,,,,,,,,,,,,,,,,,,,,,,,,,,"Division of Nutrition, Physical Activity, and Obesity",/nccdphp/dnpao/index.html,Related Links
,,,,,,,,,,,,,,,,,,,,,,,,,,,,,,,,,,,,,,,,Physical Activity,/physicalactivity/index.html,Related Links
,,,,,,,,,,,,,,,,,,,,,,,,,,,,,,,,,,,,,,,,Chronic Disease Prevention and Health Promotion,/chronicdisease/index.htm,Related Links
,,,,,,,,,,,,,,,,,,,,,,,,,,,,,,,,,,,,,,,,Overweight and Obesity,/obesity/index.html,Related Links
,,,,,,,,,,,,,,,,,,,,,,,,,,,,,,,,,,,,,,,,State and Local Programs,/nccdphp/dnpao/state-local-programs/index.html,Related Links
