ID,YearStart,YearEnd,Description,LocationAbbr,LocationDesc,DataSource,Class,Topic,Question,Response,Data_Value_Unit,DataValueTypeId,Data_Value_Type,Data_Value,Data_Value_Footnote_Symbol,Data_Value_Footnote,Low_Confidence_Limit,High_Confidence_Limit,Sample_Size,GeoLocation_Lat,GeoLocation_Long,ClassId,TopicId,QuestionId,ResponseId,StratficationCategory1,StratificationCategoryId1,Stratification1,StratificationId1,StratificationCategory2,StratificationCategoryId2,Stratification2,StratificationId2,StratificationCategory3,StratificationCategoryId3,Stratification3,StratificationId3,LocationDisplayOrder,FootnoteSymbol,FootnoteText,URL,FootnoteHeading
124036,2011,2011,2011,US,National,YRBSS,Obesity / Weight Status,Obesity / Weight Status,Percent of students in grades 9-12 who have obesity †,,,VALUE,Value,13,,,11.7,14.4,"14,285",,,OWS,OWS1,Q038,,Total,OVR,Total,OVERALL,,,,,,,,,0,,,,
129158,2011,2011,2011,AL,Alabama,YRBSS,Obesity / Weight Status,Obesity / Weight Status,Percent of students in grades 9-12 who have obesity †,,,VALUE,Value,17,,,13.5,21.2,"1,288",32.84057112,-86.63186076,OWS,OWS1,Q038,,Total,OVR,Total,OVERALL,,,,,,,,,1,,,,
119554,2011,2011,2011,AK,Alaska,YRBSS,Obesity / Weight Status,Obesity / Weight Status,Percent of students in grades 9-12 who have obesity †,,,VALUE,Value,11.5,,,9.6,13.6,"1,275",64.84507996,-147.722059,OWS,OWS1,Q038,,Total,OVR,Total,OVERALL,,,,,,,,,2,,,,
137346,2011,2011,2011,AZ,Arizona,YRBSS,Obesity / Weight Status,Obesity / Weight Status,Percent of students in grades 9-12 who have obesity †,,,VALUE,Value,10.9,,,9.1,12.9,"2,688",34.86597028,-111.7638113,OWS,OWS1,Q038,,Total,OVR,Total,OVERALL,,,,,,,,,4,,,,
136888,2011,2011,2011,AR,Arkansas,YRBSS,Obesity / Weight Status,Obesity / Weight Status,Percent of students in grades 9-12 who have obesity †,,,VALUE,Value,15.2,,,13.2,17.4,"1,276",34.74865012,-92.27449074,OWS,OWS1,Q038,,Total,OVR,Total,OVERALL,,,,,,,,,5,,,,
137428,2011,2011,2011,CO,Colorado,YRBSS,Obesity / Weight Status,Obesity / Weight Status,Percent of students in grades 9-12 who have obesity †,,,VALUE,Value,7.3,,,5.3,10.1,"1,362",38.84384076,-106.1336109,OWS,OWS1,Q038,,Total,OVR,Total,OVERALL,,,,,,,,,8,,,,
121644,2011,2011,2011,CT,Connecticut,YRBSS,Obesity / Weight Status,Obesity / Weight Status,Percent of students in grades 9-12 who have obesity †,,,VALUE,Value,12.5,,,10.1,15.5,"1,965",41.56266102,-72.64984095,OWS,OWS1,Q038,,Total,OVR,Total,OVERALL,,,,,,,,,9,,,,
129560,2011,2011,2011,DE,Delaware,YRBSS,Obesity / Weight Status,Obesity / Weight Status,Percent of students in grades 9-12 who have obesity †,,,VALUE,Value,12.2,,,10.8,13.8,"2,095",39.00883067,-75.57774117,OWS,OWS1,Q038,,Total,OVR,Total,OVERALL,,,,,,,,,10,,,,
119034,2011,2011,2011,DC,District of Columbia,YRBSS,Obesity / Weight Status,Obesity / Weight Status,Percent of students in grades 9-12 who have obesity †,,,VALUE,Value,14.5,,,12.4,17,"1,267",38.89037139,-77.03196113,OWS,OWS1,Q038,,Total,OVR,Total,OVERALL,,,,,,,,,11,,,,
117454,2011,2011,2011,FL,Florida,YRBSS,Obesity / Weight Status,Obesity / Weight Status,Percent of students in grades 9-12 who have obesity †,,,VALUE,Value,11.5,,,10.4,12.7,"5,323",28.93204038,-81.92896054,OWS,OWS1,Q038,,Total,OVR,Total,OVERALL,,,,,,,,,12,,,,
143834,2011,2011,2011,GA,Georgia,YRBSS,Obesity / Weight Status,Obesity / Weight Status,Percent of students in grades 9-12 who have obesity †,,,VALUE,Value,15,,,12.8,17.4,"1,857",32.83968109,-83.62758035,OWS,OWS1,Q038,,Total,OVR,Total,OVERALL,,,,,,,,,13,,,,
132969,2011,2011,2011,HI,Hawaii,YRBSS,Obesity / Weight Status,Obesity / Weight Status,Percent of students in grades 9-12 who have obesity †,,,VALUE,Value,13.2,,,11,15.7,"4,123",21.30485044,-157.8577494,OWS,OWS1,Q038,,Total,OVR,Total,OVERALL,,,,,,,,,15,,,,
122616,2011,2011,2011,ID,Idaho,YRBSS,Obesity / Weight Status,Obesity / Weight Status,Percent of students in grades 9-12 who have obesity †,,,VALUE,Value,9.2,,,7.8,10.9,"1,653",43.68263001,-114.36373,OWS,OWS1,Q038,,Total,OVR,Total,OVERALL,,,,,,,,,16,,,,
134575,2011,2011,2011,IL,Illinois,YRBSS,Obesity / Weight Status,Obesity / Weight Status,Percent of students in grades 9-12 who have obesity †,,,VALUE,Value,11.6,,,10,13.3,"3,443",40.48501028,-88.99771018,OWS,OWS1,Q038,,Total,OVR,Total,OVERALL,,,,,,,,,17,,,,
111711,2011,2011,2011,IN,Indiana,YRBSS,Obesity / Weight Status,Obesity / Weight Status,Percent of students in grades 9-12 who have obesity †,,,VALUE,Value,14.7,,,13.1,16.6,"2,746",39.76691045,-86.14996019,OWS,OWS1,Q038,,Total,OVR,Total,OVERALL,,,,,,,,,18,,,,
119585,2011,2011,2011,IA,Iowa,YRBSS,Obesity / Weight Status,Obesity / Weight Status,Percent of students in grades 9-12 who have obesity †,,,VALUE,Value,13.2,,,10.4,16.7,"1,432",42.46940091,-93.81649056,OWS,OWS1,Q038,,Total,OVR,Total,OVERALL,,,,,,,,,19,,,,
133273,2011,2011,2011,KS,Kansas,YRBSS,Obesity / Weight Status,Obesity / Weight Status,Percent of students in grades 9-12 who have obesity †,,,VALUE,Value,10.2,,,8.8,11.8,"1,827",38.3477403,-98.20078123,OWS,OWS1,Q038,,Total,OVR,Total,OVERALL,,,,,,,,,20,,,,
144219,2011,2011,2011,KY,Kentucky,YRBSS,Obesity / Weight Status,Obesity / Weight Status,Percent of students in grades 9-12 who have obesity †,,,VALUE,Value,16.5,,,14.1,19.1,"1,700",37.64597027,-84.77497105,OWS,OWS1,Q038,,Total,OVR,Total,OVERALL,,,,,,,,,21,,,,
139166,2011,2011,2011,LA,Louisiana,YRBSS,Obesity / Weight Status,Obesity / Weight Status,Percent of students in grades 9-12 who have obesity †,,,VALUE,Value,16.1,,,13.7,18.9,"1,054",31.31266064,-92.44568007,OWS,OWS1,Q038,,Total,OVR,Total,OVERALL,,,,,,,,,22,,,,
121813,2011,2011,2011,ME,Maine,YRBSS,Obesity / Weight Status,Obesity / Weight Status,Percent of students in grades 9-12 who have obesity †,,,VALUE,Value,11.5,,,10.2,13,"8,597",45.25422889,-68.98503134,OWS,OWS1,Q038,,Total,OVR,Total,OVERALL,,,,,,,,,23,,,,
122356,2011,2011,2011,MD,Maryland,YRBSS,Obesity / Weight Status,Obesity / Weight Status,Percent of students in grades 9-12 who have obesity †,,,VALUE,Value,12,,,10.4,13.7,"2,739",39.29058096,-76.60926011,OWS,OWS1,Q038,,Total,OVR,Total,OVERALL,,,,,,,,,24,,,,
130821,2011,2011,2011,MA,Massachusetts,YRBSS,Obesity / Weight Status,Obesity / Weight Status,Percent of students in grades 9-12 who have obesity †,,,VALUE,Value,9.9,,,8.3,11.8,"2,618",42.27687047,-72.08269068,OWS,OWS1,Q038,,Total,OVR,Total,OVERALL,,,,,,,,,25,,,,
122568,2011,2011,2011,MI,Michigan,YRBSS,Obesity / Weight Status,Obesity / Weight Status,Percent of students in grades 9-12 who have obesity †,,,VALUE,Value,12.1,,,10.6,13.8,"4,038",44.66131954,-84.71439027,OWS,OWS1,Q038,,Total,OVR,Total,OVERALL,,,,,,,,,26,,,,
131550,2011,2011,2011,MS,Mississippi,YRBSS,Obesity / Weight Status,Obesity / Weight Status,Percent of students in grades 9-12 who have obesity †,,,VALUE,Value,15.8,,,13.7,18.1,"1,732",32.7455101,-89.53803083,OWS,OWS1,Q038,,Total,OVR,Total,OVERALL,,,,,,,,,28,,,,
132410,2011,2011,2011,MT,Montana,YRBSS,Obesity / Weight Status,Obesity / Weight Status,Percent of students in grades 9-12 who have obesity †,,,VALUE,Value,8.5,,,7.5,9.6,"4,035",47.06652897,-109.4244206,OWS,OWS1,Q038,,Total,OVR,Total,OVERALL,,,,,,,,,30,,,,
121745,2011,2011,2011,NE,Nebraska,YRBSS,Obesity / Weight Status,Obesity / Weight Status,Percent of students in grades 9-12 who have obesity †,,,VALUE,Value,11.6,,,10.5,12.8,"3,471",41.64104099,-99.36572062,OWS,OWS1,Q038,,Total,OVR,Total,OVERALL,,,,,,,,,31,,,,
127394,2011,2011,2011,NH,New Hampshire,YRBSS,Obesity / Weight Status,Obesity / Weight Status,Percent of students in grades 9-12 who have obesity †,,,VALUE,Value,12.1,,,10.5,13.9,"1,314",43.65595011,-71.50036092,OWS,OWS1,Q038,,Total,OVR,Total,OVERALL,,,,,,,,,33,,,,
116505,2011,2011,2011,NJ,New Jersey,YRBSS,Obesity / Weight Status,Obesity / Weight Status,Percent of students in grades 9-12 who have obesity †,,,VALUE,Value,11,,,9.2,13.2,"1,626",40.13057005,-74.27369129,OWS,OWS1,Q038,,Total,OVR,Total,OVERALL,,,,,,,,,34,,,,
132844,2011,2011,2011,NM,New Mexico,YRBSS,Obesity / Weight Status,Obesity / Weight Status,Percent of students in grades 9-12 who have obesity †,,,VALUE,Value,12.8,,,10.9,15.1,"5,543",34.52088095,-106.240581,OWS,OWS1,Q038,,Total,OVR,Total,OVERALL,,,,,,,,,35,,,,
127903,2011,2011,2011,NY,New York,YRBSS,Obesity / Weight Status,Obesity / Weight Status,Percent of students in grades 9-12 who have obesity †,,,VALUE,Value,11,,,9.8,12.3,"12,142",42.82700103,-75.54397043,OWS,OWS1,Q038,,Total,OVR,Total,OVERALL,,,,,,,,,36,,,,
112296,2011,2011,2011,NC,North Carolina,YRBSS,Obesity / Weight Status,Obesity / Weight Status,Percent of students in grades 9-12 who have obesity †,,,VALUE,Value,12.9,,,10.1,16.4,"2,194",35.46622098,-79.15925046,OWS,OWS1,Q038,,Total,OVR,Total,OVERALL,,,,,,,,,37,,,,
135270,2011,2011,2011,ND,North Dakota,YRBSS,Obesity / Weight Status,Obesity / Weight Status,Percent of students in grades 9-12 who have obesity †,,,VALUE,Value,11,,,9.4,12.8,"1,871",47.47531978,-100.118421,OWS,OWS1,Q038,,Total,OVR,Total,OVERALL,,,,,,,,,38,,,,
109966,2011,2011,2011,OH,Ohio,YRBSS,Obesity / Weight Status,Obesity / Weight Status,Percent of students in grades 9-12 who have obesity †,,,VALUE,Value,14.7,,,11.9,18,"1,367",40.06021014,-82.40426006,OWS,OWS1,Q038,,Total,OVR,Total,OVERALL,,,,,,,,,39,,,,
122079,2011,2011,2011,OK,Oklahoma,YRBSS,Obesity / Weight Status,Obesity / Weight Status,Percent of students in grades 9-12 who have obesity †,,,VALUE,Value,16.7,,,13.9,19.9,"1,084",35.47203136,-97.52107021,OWS,OWS1,Q038,,Total,OVR,Total,OVERALL,,,,,,,,,40,,,,
113196,2011,2011,2011,RI,Rhode Island,YRBSS,Obesity / Weight Status,Obesity / Weight Status,Percent of students in grades 9-12 who have obesity †,,,VALUE,Value,10.8,,,8.8,13.3,"3,775",41.70828019,-71.52247031,OWS,OWS1,Q038,,Total,OVR,Total,OVERALL,,,,,,,,,44,,,,
127085,2011,2011,2011,SC,South Carolina,YRBSS,Obesity / Weight Status,Obesity / Weight Status,Percent of students in grades 9-12 who have obesity †,,,VALUE,Value,13.3,,,10.6,16.5,"1,416",33.9988213,-81.04537121,OWS,OWS1,Q038,,Total,OVR,Total,OVERALL,,,,,,,,,45,,,,
123385,2011,2011,2011,SD,South Dakota,YRBSS,Obesity / Weight Status,Obesity / Weight Status,Percent of students in grades 9-12 who have obesity †,,,VALUE,Value,9.8,,,8,11.9,"1,487",44.35313005,-100.3735306,OWS,OWS1,Q038,,Total,OVR,Total,OVERALL,,,,,,,,,46,,,,
144251,2011,2011,2011,TN,Tennessee,YRBSS,Obesity / Weight Status,Obesity / Weight Status,Percent of students in grades 9-12 who have obesity †,,,VALUE,Value,15.2,,,13.7,16.9,"2,447",35.68094058,-85.77449091,OWS,OWS1,Q038,,Total,OVR,Total,OVERALL,,,,,,,,,47,,,,
127015,2011,2011,2011,TX,Texas,YRBSS,Obesity / Weight Status,Obesity / Weight Status,Percent of students in grades 9-12 who have obesity †,,,VALUE,Value,15.6,,,13.7,17.6,"3,980",31.82724041,-99.42677021,OWS,OWS1,Q038,,Total,OVR,Total,OVERALL,,,,,,,,,48,,,,
126441,2011,2011,2011,UT,Utah,YRBSS,Obesity / Weight Status,Obesity / Weight Status,Percent of students in grades 9-12 who have obesity †,,,VALUE,Value,8.6,,,7.1,10.4,"1,650",39.36070017,-111.5871306,OWS,OWS1,Q038,,Total,OVR,Total,OVERALL,,,,,,,,,49,,,,
110058,2011,2011,2011,VT,Vermont,YRBSS,Obesity / Weight Status,Obesity / Weight Status,Percent of students in grades 9-12 who have obesity †,,,VALUE,Value,9.9,,,8.1,12,"7,667",43.62538124,-72.51764079,OWS,OWS1,Q038,,Total,OVR,Total,OVERALL,,,,,,,,,50,,,,
112053,2011,2011,2011,VA,Virginia,YRBSS,Obesity / Weight Status,Obesity / Weight Status,Percent of students in grades 9-12 who have obesity †,,,VALUE,Value,11.1,,,8.8,13.8,"1,380",37.54268067,-78.45789046,OWS,OWS1,Q038,,Total,OVR,Total,OVERALL,,,,,,,,,51,,,,
112135,2011,2011,2011,WV,West Virginia,YRBSS,Obesity / Weight Status,Obesity / Weight Status,Percent of students in grades 9-12 who have obesity †,,,VALUE,Value,14.6,,,12.4,17.2,"2,036",38.6655102,-80.71264014,OWS,OWS1,Q038,,Total,OVR,Total,OVERALL,,,,,,,,,54,,,,
116385,2011,2011,2011,WI,Wisconsin,YRBSS,Obesity / Weight Status,Obesity / Weight Status,Percent of students in grades 9-12 who have obesity †,,,VALUE,Value,10.4,,,9,12.1,"2,969",44.39319117,-89.81637074,OWS,OWS1,Q038,,Total,OVR,Total,OVERALL,,,,,,,,,55,,,,
141238,2011,2011,2011,WY,Wyoming,YRBSS,Obesity / Weight Status,Obesity / Weight Status,Percent of students in grades 9-12 who have obesity †,,,VALUE,Value,11.1,,,9.8,12.5,"2,413",43.23554134,-108.1098304,OWS,OWS1,Q038,,Total,OVR,Total,OVERALL,,,,,,,,,56,,,,
,,,,,,,,,,,,,,,,,,,,,,,,,,,,,,,,,,,,,,,†,Obesity is defined as body mass index (BMI)-for-age and sex =95th percentile based on the 2000 CDC growth chart; BMI was calculated from self-reported weight and height (weight [kg]/ height [m²]).,,Footnote
,,,,,,,,,,,,,,,,,,,,,,,,,,,,,,,,,,,,,,,,Youth Risk Behavior Surveillance System ,https://www.cdc.gov/healthyyouth/data/yrbs/index.htm,Data Source
,,,,,,,,,,,,,,,,,,,,,,,,,,,,,,,,,,,,,,,,"Centers for Disease Control and Prevention.National Center for Chronic Disease Prevention and Health Promotion, Division of Nutrition, Physical Activity, and Obesity.Data, Trend and Maps [online].",/nccdphp/dnpao/data-trends-maps/index.html,Suggested Citation
,,,,,,,,,,,,,,,,,,,,,,,,,,,,,,,,,,,,,,,,Breastfeeding,/breastfeeding/index.htm,Related Links
,,,,,,,,,,,,,,,,,,,,,,,,,,,,,,,,,,,,,,,,"Division of Nutrition, Physical Activity, and Obesity",/nccdphp/dnpao/index.html,Related Links
,,,,,,,,,,,,,,,,,,,,,,,,,,,,,,,,,,,,,,,,Physical Activity,/physicalactivity/index.html,Related Links
,,,,,,,,,,,,,,,,,,,,,,,,,,,,,,,,,,,,,,,,Chronic Disease Prevention and Health Promotion,/chronicdisease/index.htm,Related Links
,,,,,,,,,,,,,,,,,,,,,,,,,,,,,,,,,,,,,,,,Overweight and Obesity,/obesity/index.html,Related Links
,,,,,,,,,,,,,,,,,,,,,,,,,,,,,,,,,,,,,,,,State and Local Programs,/nccdphp/dnpao/state-local-programs/index.html,Related Links
